% program   : RTKPOST ver.demo5 b31a
% inp file  : C:\Users\Chane\Desktop\GNSS Data\21 July 19 For Laptop 2\Scenario 2 Over taking vehicles [V2V]\RINEX_S2\Log_Rover_KML2_10Hz_S2_T1.obs
% inp file  : C:\Users\Chane\Desktop\GNSS Data\21 July 19 For Laptop 2\Scenario 2 Over taking vehicles [V2V]\RINEX_S2\Log_Base_KML2_10Hz_S2_T1.obs
% inp file  : C:\Users\Chane\Desktop\GNSS Data\21 July 19 For Laptop 2\Scenario 2 Over taking vehicles [V2V]\RINEX_S2\Log_Rover_KML2_10Hz_S2_T1.nav
% obs start : 2019/07/21 02:05:18.7 GPST (week2063   7518.7s)
% obs end   : 2019/07/21 02:45:38.6 GPST (week2063   9938.6s)
% pos mode  : kinematic
% freqs     : L1
% solution  : combined
% elev mask : 15.0 deg
% dynamics  : on
% tidecorr  : off
% ionos opt : broadcast
% tropo opt : saastamoinen
% ephemeris : broadcast
% navi sys  : gps glonass qzss beidou sbas
% amb res   : fix and hold
% amb glo   : on
% val thres : 3.0
% antenna1  :                       ( 0.0000  0.0000  0.0000)
% antenna2  :                       ( 0.0000  0.0000  0.0000)
% ref pos   :-27.526147640  153.266540050    66.9090
%
% (lat/lon/height=WGS84/ellipsoidal,Q=1:fix,2:float,3:sbas,4:dgps,5:single,6:ppp,ns=# of satellites)
%  GPST                  latitude(deg) longitude(deg)  height(m)   Q  ns   sdn(m)   sde(m)   sdu(m)  sdne(m)  sdeu(m)  sdun(m) age(s)  ratio
2019/07/21 02:05:18.700  -27.524356523  153.219836869    86.3319   1  14   0.0059   0.0075   0.0115  -0.0041  -0.0068   0.0052  -0.29   68.5
2019/07/21 02:05:18.800  -27.524356533  153.219836879    86.3310   1  14   0.0058   0.0075   0.0114  -0.0041  -0.0068   0.0052  -0.19   68.5
2019/07/21 02:05:18.900  -27.524356522  153.219836885    86.3309   1  14   0.0058   0.0075   0.0113  -0.0040  -0.0067   0.0051  -0.09   68.4
2019/07/21 02:05:19.000  -27.524356525  153.219836866    86.3330   1  14   0.0055   0.0070   0.0104  -0.0035  -0.0058   0.0043   0.00   68.4
2019/07/21 02:05:19.100  -27.524356500  153.219836920    86.3425   1  21   0.0039   0.0045   0.0082   0.0005  -0.0033   0.0006  -0.89   43.4
2019/07/21 02:05:19.200  -27.524356484  153.219836922    86.3421   1  21   0.0039   0.0045   0.0082   0.0005  -0.0033   0.0006  -0.80   43.4
2019/07/21 02:05:19.300  -27.524356486  153.219836918    86.3417   1  21   0.0039   0.0044   0.0082   0.0005  -0.0033   0.0006  -0.69   43.4
2019/07/21 02:05:19.400  -27.524356491  153.219836926    86.3394   1  21   0.0039   0.0044   0.0082   0.0005  -0.0033   0.0006  -0.60   43.3
2019/07/21 02:05:19.500  -27.524356489  153.219836921    86.3417   1  21   0.0039   0.0044   0.0082   0.0005  -0.0033   0.0006  -0.50   43.3
2019/07/21 02:05:19.600  -27.524356493  153.219836934    86.3419   1  21   0.0039   0.0044   0.0081   0.0005  -0.0033   0.0006  -0.40   43.3
2019/07/21 02:05:19.700  -27.524356485  153.219836925    86.3431   1  21   0.0039   0.0044   0.0081   0.0005  -0.0033   0.0006  -0.29   43.2
2019/07/21 02:05:19.800  -27.524356493  153.219836923    86.3431   1  21   0.0039   0.0044   0.0081   0.0005  -0.0033   0.0005  -0.19   43.2
2019/07/21 02:05:19.900  -27.524356492  153.219836933    86.3425   1  21   0.0039   0.0044   0.0081   0.0005  -0.0033   0.0005  -0.09   43.2
2019/07/21 02:05:20.000  -27.524356495  153.219836926    86.3431   1  21   0.0039   0.0044   0.0081   0.0005  -0.0033   0.0006   0.00   43.1
2019/07/21 02:05:20.100  -27.524356484  153.219836923    86.3423   1  21   0.0039   0.0045   0.0082   0.0005  -0.0033   0.0006  -0.89   43.1
2019/07/21 02:05:20.200  -27.524356487  153.219836924    86.3426   1  21   0.0039   0.0045   0.0082   0.0005  -0.0033   0.0006  -0.80   43.0
2019/07/21 02:05:20.300  -27.524356497  153.219836931    86.3424   1  21   0.0039   0.0044   0.0082   0.0005  -0.0033   0.0006  -0.69   43.0
2019/07/21 02:05:20.400  -27.524356487  153.219836923    86.3422   1  21   0.0039   0.0044   0.0082   0.0005  -0.0033   0.0006  -0.60   43.0
2019/07/21 02:05:20.500  -27.524356496  153.219836935    86.3419   1  21   0.0039   0.0044   0.0082   0.0005  -0.0033   0.0006  -0.50   42.9
2019/07/21 02:05:20.600  -27.524356494  153.219836926    86.3416   1  21   0.0039   0.0044   0.0081   0.0005  -0.0033   0.0006  -0.40   42.9
2019/07/21 02:05:20.700  -27.524356490  153.219836935    86.3403   1  21   0.0039   0.0044   0.0081   0.0005  -0.0033   0.0006  -0.29   42.8
2019/07/21 02:05:20.800  -27.524356489  153.219836936    86.3400   1  21   0.0039   0.0044   0.0081   0.0005  -0.0033   0.0005  -0.19   42.8
2019/07/21 02:05:20.900  -27.524356484  153.219836935    86.3415   1  21   0.0039   0.0044   0.0081   0.0005  -0.0033   0.0005  -0.09   42.8
2019/07/21 02:05:21.000  -27.524356504  153.219836934    86.3427   1  21   0.0039   0.0044   0.0081   0.0005  -0.0033   0.0006   0.00   42.7
2019/07/21 02:05:21.100  -27.524356487  153.219836929    86.3435   1  21   0.0039   0.0045   0.0082   0.0005  -0.0033   0.0006  -0.89   42.7
2019/07/21 02:05:21.200  -27.524356497  153.219836930    86.3441   1  21   0.0039   0.0045   0.0082   0.0005  -0.0033   0.0006  -0.80   42.7
2019/07/21 02:05:21.300  -27.524356499  153.219836920    86.3452   1  21   0.0039   0.0044   0.0082   0.0005  -0.0033   0.0006  -0.69   42.6
2019/07/21 02:05:21.400  -27.524356498  153.219836940    86.3433   1  21   0.0039   0.0044   0.0082   0.0005  -0.0033   0.0006  -0.60   42.6
2019/07/21 02:05:21.500  -27.524356490  153.219836922    86.3445   1  21   0.0039   0.0044   0.0082   0.0005  -0.0033   0.0006  -0.50   42.6
2019/07/21 02:05:21.600  -27.524356483  153.219836914    86.3450   1  21   0.0039   0.0044   0.0081   0.0005  -0.0033   0.0006  -0.40   42.5
2019/07/21 02:05:21.700  -27.524356486  153.219836923    86.3445   1  21   0.0039   0.0044   0.0081   0.0005  -0.0033   0.0006  -0.29   42.5
2019/07/21 02:05:21.800  -27.524356486  153.219836935    86.3427   1  21   0.0039   0.0044   0.0081   0.0005  -0.0033   0.0005  -0.19   42.4
2019/07/21 02:05:21.900  -27.524356489  153.219836941    86.3440   1  21   0.0039   0.0044   0.0081   0.0005  -0.0033   0.0005  -0.09   42.4
2019/07/21 02:05:22.000  -27.524356481  153.219836931    86.3437   1  21   0.0039   0.0044   0.0081   0.0005  -0.0033   0.0005   0.00   42.4
2019/07/21 02:05:22.100  -27.524356497  153.219836919    86.3419   1  21   0.0039   0.0045   0.0082   0.0005  -0.0033   0.0006  -0.89   42.3
2019/07/21 02:05:22.200  -27.524356486  153.219836919    86.3419   1  21   0.0039   0.0045   0.0082   0.0005  -0.0033   0.0006  -0.80   42.3
2019/07/21 02:05:22.300  -27.524356500  153.219836922    86.3423   1  21   0.0039   0.0044   0.0082   0.0005  -0.0033   0.0006  -0.69   42.3
2019/07/21 02:05:22.400  -27.524356497  153.219836926    86.3405   1  21   0.0039   0.0044   0.0082   0.0005  -0.0033   0.0006  -0.60   42.2
2019/07/21 02:05:22.500  -27.524356492  153.219836928    86.3406   1  21   0.0039   0.0044   0.0082   0.0005  -0.0033   0.0006  -0.50   42.2
2019/07/21 02:05:22.600  -27.524356498  153.219836927    86.3410   1  21   0.0039   0.0044   0.0081   0.0005  -0.0033   0.0006  -0.40   42.2
2019/07/21 02:05:22.700  -27.524356499  153.219836922    86.3410   1  21   0.0039   0.0044   0.0081   0.0005  -0.0033   0.0006  -0.29   42.1
2019/07/21 02:05:22.800  -27.524356502  153.219836921    86.3417   1  21   0.0039   0.0044   0.0081   0.0005  -0.0033   0.0005  -0.19   42.1
2019/07/21 02:05:22.900  -27.524356500  153.219836930    86.3422   1  21   0.0039   0.0044   0.0081   0.0005  -0.0033   0.0005  -0.09   42.1
2019/07/21 02:05:23.000  -27.524356496  153.219836926    86.3380   1  21   0.0028   0.0032   0.0059   0.0005  -0.0024  -0.0003   0.00    4.0
2019/07/21 02:05:23.100  -27.524356483  153.219836916    86.3372   1  21   0.0028   0.0032   0.0059   0.0005  -0.0024  -0.0002   0.10    3.9
2019/07/21 02:05:23.200  -27.524356479  153.219836907    86.3380   1  21   0.0028   0.0032   0.0059   0.0005  -0.0024  -0.0002   0.20    3.9
2019/07/21 02:05:23.300  -27.524356486  153.219836929    86.3374   1  21   0.0028   0.0032   0.0059   0.0005  -0.0024  -0.0002   0.31    3.8
2019/07/21 02:05:23.400  -27.524356495  153.219836924    86.3369   1  21   0.0028   0.0032   0.0059   0.0005  -0.0024  -0.0002   0.41    3.7
2019/07/21 02:05:23.500  -27.524356491  153.219836921    86.3380   1  21   0.0028   0.0032   0.0059   0.0005  -0.0024  -0.0002   0.50    3.6
2019/07/21 02:05:23.600  -27.524356478  153.219836902    86.3375   1  21   0.0028   0.0032   0.0058   0.0005  -0.0024  -0.0002   0.61    3.6
2019/07/21 02:05:23.700  -27.524356483  153.219836914    86.3379   1  21   0.0028   0.0032   0.0058   0.0005  -0.0024  -0.0002   0.70    3.5
2019/07/21 02:05:23.800  -27.524356491  153.219836909    86.3386   1  21   0.0028   0.0032   0.0059   0.0005  -0.0024  -0.0002   0.81    3.5
2019/07/21 02:05:23.900  -27.524356489  153.219836905    86.3387   1  21   0.0028   0.0032   0.0059   0.0005  -0.0024  -0.0001   0.90    3.5
2019/07/21 02:05:24.000  -27.524356478  153.219836920    86.3378   1  21   0.0028   0.0031   0.0058   0.0005  -0.0023  -0.0002   0.00    3.5
2019/07/21 02:05:24.100  -27.524356499  153.219836921    86.3371   1  21   0.0028   0.0032   0.0059   0.0005  -0.0024  -0.0001   0.10    3.6
2019/07/21 02:05:24.200  -27.524356499  153.219836926    86.3364   1  21   0.0028   0.0032   0.0058   0.0005  -0.0024  -0.0001   0.20    3.6
2019/07/21 02:05:24.300  -27.524356493  153.219836921    86.3377   1  21   0.0028   0.0032   0.0058   0.0004  -0.0023  -0.0001   0.31    3.6
2019/07/21 02:05:24.400  -27.524356493  153.219836915    86.3379   1  21   0.0028   0.0032   0.0058   0.0004  -0.0023  -0.0001   0.41    3.6
2019/07/21 02:05:24.500  -27.524356499  153.219836924    86.3380   1  21   0.0028   0.0031   0.0058   0.0004  -0.0023  -0.0001   0.50    3.7
2019/07/21 02:05:24.600  -27.524356489  153.219836933    86.3376   1  21   0.0028   0.0031   0.0058   0.0004  -0.0023  -0.0000   0.61    3.7
2019/07/21 02:05:24.700  -27.524356485  153.219836918    86.3386   1  21   0.0028   0.0032   0.0058   0.0004  -0.0023   0.0001   0.70    3.7
2019/07/21 02:05:24.800  -27.524356493  153.219836920    86.3381   1  21   0.0028   0.0032   0.0058   0.0004  -0.0023   0.0001   0.81    3.8
2019/07/21 02:05:24.900  -27.524356498  153.219836934    86.3381   1  21   0.0028   0.0032   0.0058   0.0004  -0.0023   0.0001   0.90    3.8
2019/07/21 02:05:25.000  -27.524356495  153.219836925    86.3377   1  21   0.0027   0.0031   0.0058   0.0004  -0.0023  -0.0001   0.00    9.1
2019/07/21 02:05:25.100  -27.524356499  153.219836928    86.3373   1  21   0.0028   0.0032   0.0058   0.0004  -0.0023   0.0002   0.10   11.1
2019/07/21 02:05:25.200  -27.524356497  153.219836930    86.3370   1  21   0.0028   0.0032   0.0058   0.0004  -0.0023   0.0001   0.20   13.0
2019/07/21 02:05:25.300  -27.524356487  153.219836915    86.3391   1  21   0.0028   0.0031   0.0058   0.0004  -0.0023   0.0001   0.31   14.8
2019/07/21 02:05:25.400  -27.524356501  153.219836933    86.3385   1  21   0.0028   0.0031   0.0058   0.0004  -0.0023   0.0001   0.41   16.1
2019/07/21 02:05:25.500  -27.524356494  153.219836921    86.3385   1  21   0.0028   0.0031   0.0058   0.0004  -0.0023   0.0002   0.50   16.9
2019/07/21 02:05:25.600  -27.524356496  153.219836912    86.3393   1  21   0.0028   0.0031   0.0058   0.0004  -0.0023   0.0002   0.61   17.7
2019/07/21 02:05:25.700  -27.524356487  153.219836921    86.3386   1  21   0.0028   0.0031   0.0058   0.0004  -0.0023   0.0002   0.70   18.5
2019/07/21 02:05:25.800  -27.524356500  153.219836923    86.3381   1  21   0.0028   0.0032   0.0058   0.0004  -0.0023   0.0002   0.81   19.2
2019/07/21 02:05:25.900  -27.524356489  153.219836914    86.3375   1  21   0.0028   0.0032   0.0058   0.0004  -0.0023   0.0002   0.90   20.0
2019/07/21 02:05:26.000  -27.524356488  153.219836912    86.3370   1  21   0.0027   0.0031   0.0058   0.0004  -0.0023   0.0001   0.00   20.5
2019/07/21 02:05:26.100  -27.524356483  153.219836916    86.3376   1  21   0.0028   0.0032   0.0058   0.0004  -0.0023   0.0002   0.10   20.9
2019/07/21 02:05:26.200  -27.524356479  153.219836915    86.3378   1  21   0.0028   0.0032   0.0058   0.0004  -0.0023   0.0002   0.20   21.4
2019/07/21 02:05:26.300  -27.524356487  153.219836908    86.3381   1  21   0.0028   0.0031   0.0058   0.0004  -0.0023   0.0002   0.31   21.7
2019/07/21 02:05:26.400  -27.524356487  153.219836912    86.3384   1  21   0.0028   0.0031   0.0058   0.0004  -0.0023   0.0002   0.41   22.1
2019/07/21 02:05:26.500  -27.524356488  153.219836920    86.3395   1  21   0.0028   0.0031   0.0058   0.0004  -0.0023   0.0002   0.50   22.4
2019/07/21 02:05:26.600  -27.524356497  153.219836919    86.3379   1  21   0.0028   0.0031   0.0058   0.0004  -0.0023   0.0002   0.61   22.8
2019/07/21 02:05:26.700  -27.524356497  153.219836916    86.3385   1  21   0.0028   0.0031   0.0058   0.0004  -0.0023   0.0002   0.70   23.1
2019/07/21 02:05:26.800  -27.524356485  153.219836910    86.3380   1  21   0.0028   0.0031   0.0058   0.0004  -0.0023   0.0002   0.81   23.4
2019/07/21 02:05:26.900  -27.524356495  153.219836918    86.3384   1  21   0.0028   0.0032   0.0058   0.0004  -0.0023   0.0003   0.90   23.7
2019/07/21 02:05:27.000  -27.524356491  153.219836912    86.3392   1  21   0.0027   0.0031   0.0058   0.0004  -0.0023   0.0002   0.00   24.0
2019/07/21 02:05:27.100  -27.524356493  153.219836912    86.3390   1  21   0.0028   0.0032   0.0058   0.0004  -0.0023   0.0003   0.10   24.3
2019/07/21 02:05:27.200  -27.524356495  153.219836919    86.3387   1  21   0.0028   0.0031   0.0058   0.0004  -0.0023   0.0002   0.20   24.6
2019/07/21 02:05:27.300  -27.524356485  153.219836913    86.3396   1  21   0.0028   0.0031   0.0058   0.0004  -0.0023   0.0002   0.31   24.8
2019/07/21 02:05:27.400  -27.524356480  153.219836902    86.3406   1  21   0.0028   0.0031   0.0058   0.0004  -0.0023   0.0002   0.41   25.1
2019/07/21 02:05:27.500  -27.524356483  153.219836914    86.3403   1  21   0.0028   0.0031   0.0058   0.0004  -0.0023   0.0002   0.50   25.5
2019/07/21 02:05:27.600  -27.524356481  153.219836913    86.3406   1  21   0.0028   0.0031   0.0058   0.0004  -0.0023   0.0002   0.61   25.6
2019/07/21 02:05:27.700  -27.524356479  153.219836910    86.3416   1  21   0.0028   0.0031   0.0058   0.0004  -0.0023   0.0003   0.70   25.9
2019/07/21 02:05:27.800  -27.524356476  153.219836910    86.3399   1  21   0.0028   0.0031   0.0058   0.0004  -0.0023   0.0003   0.81   26.0
2019/07/21 02:05:27.900  -27.524356473  153.219836901    86.3415   1  21   0.0028   0.0032   0.0058   0.0004  -0.0023   0.0003   0.90   26.1
2019/07/21 02:05:28.000  -27.524356486  153.219836913    86.3398   1  21   0.0027   0.0031   0.0058   0.0004  -0.0023   0.0002   0.00   26.4
2019/07/21 02:05:28.100  -27.524356477  153.219836925    86.3388   1  21   0.0028   0.0032   0.0058   0.0004  -0.0023   0.0003   0.10   26.6
2019/07/21 02:05:28.200  -27.524356479  153.219836927    86.3395   1  21   0.0028   0.0031   0.0058   0.0004  -0.0023   0.0003   0.20   26.6
2019/07/21 02:05:28.300  -27.524356486  153.219836923    86.3395   1  21   0.0028   0.0031   0.0058   0.0004  -0.0023   0.0003   0.31   26.9
2019/07/21 02:05:28.400  -27.524356485  153.219836927    86.3400   1  21   0.0027   0.0031   0.0058   0.0004  -0.0023   0.0003   0.41   27.1
2019/07/21 02:05:28.500  -27.524356476  153.219836916    86.3393   1  21   0.0027   0.0031   0.0058   0.0004  -0.0023   0.0003   0.50   27.2
2019/07/21 02:05:28.600  -27.524356488  153.219836913    86.3401   1  21   0.0027   0.0031   0.0058   0.0004  -0.0023   0.0003   0.61   27.4
2019/07/21 02:05:28.700  -27.524356486  153.219836916    86.3409   1  21   0.0028   0.0031   0.0058   0.0004  -0.0023   0.0003   0.70   27.6
2019/07/21 02:05:28.800  -27.524356484  153.219836921    86.3403   1  21   0.0028   0.0031   0.0058   0.0004  -0.0023   0.0003   0.81   27.7
2019/07/21 02:05:28.900  -27.524356494  153.219836911    86.3413   1  21   0.0028   0.0032   0.0058   0.0004  -0.0023   0.0003   0.90   27.8
2019/07/21 02:05:29.000  -27.524356479  153.219836909    86.3411   1  21   0.0027   0.0031   0.0058   0.0004  -0.0023   0.0003   0.00   27.9
2019/07/21 02:05:29.100  -27.524356488  153.219836913    86.3407   1  21   0.0028   0.0032   0.0058   0.0004  -0.0023   0.0003   0.10   27.9
2019/07/21 02:05:29.200  -27.524356489  153.219836913    86.3412   1  21   0.0028   0.0031   0.0058   0.0004  -0.0023   0.0003   0.20   28.0
2019/07/21 02:05:29.300  -27.524356479  153.219836909    86.3404   1  21   0.0027   0.0031   0.0058   0.0004  -0.0023   0.0003   0.31   27.9
2019/07/21 02:05:29.400  -27.524356485  153.219836926    86.3393   1  21   0.0027   0.0031   0.0058   0.0004  -0.0023   0.0003   0.41   27.9
2019/07/21 02:05:29.500  -27.524356485  153.219836927    86.3389   1  21   0.0027   0.0031   0.0058   0.0004  -0.0023   0.0003   0.50   27.9
2019/07/21 02:05:29.600  -27.524356486  153.219836913    86.3401   1  21   0.0027   0.0031   0.0058   0.0004  -0.0023   0.0003   0.61   28.0
2019/07/21 02:05:29.700  -27.524356483  153.219836928    86.3389   1  21   0.0027   0.0031   0.0058   0.0004  -0.0023   0.0003   0.70   27.9
2019/07/21 02:05:29.800  -27.524356484  153.219836918    86.3391   1  21   0.0028   0.0031   0.0058   0.0004  -0.0023   0.0003   0.81   28.0
2019/07/21 02:05:29.900  -27.524356484  153.219836922    86.3396   1  21   0.0028   0.0031   0.0058   0.0004  -0.0023   0.0003   0.90   28.1
2019/07/21 02:05:30.000  -27.524356484  153.219836917    86.3388   1  21   0.0027   0.0031   0.0058   0.0004  -0.0023   0.0003   0.00   28.2
2019/07/21 02:05:30.100  -27.524356490  153.219836926    86.3376   1  21   0.0028   0.0031   0.0058   0.0004  -0.0023   0.0003   0.10   28.2
2019/07/21 02:05:30.200  -27.524356488  153.219836921    86.3390   1  21   0.0028   0.0031   0.0058   0.0004  -0.0023   0.0003   0.20   28.1
2019/07/21 02:05:30.300  -27.524356489  153.219836928    86.3379   1  21   0.0027   0.0031   0.0058   0.0004  -0.0023   0.0003   0.31   28.2
2019/07/21 02:05:30.400  -27.524356492  153.219836921    86.3390   1  21   0.0027   0.0031   0.0058   0.0004  -0.0023   0.0003   0.41   28.2
2019/07/21 02:05:30.500  -27.524356489  153.219836914    86.3387   1  21   0.0027   0.0031   0.0058   0.0004  -0.0023   0.0003   0.50   28.5
2019/07/21 02:05:30.600  -27.524356487  153.219836912    86.3378   1  21   0.0027   0.0031   0.0058   0.0004  -0.0023   0.0003   0.61   28.4
2019/07/21 02:05:30.700  -27.524356487  153.219836911    86.3385   1  21   0.0027   0.0031   0.0058   0.0004  -0.0023   0.0003   0.70   28.3
2019/07/21 02:05:30.800  -27.524356493  153.219836929    86.3374   1  21   0.0028   0.0031   0.0058   0.0004  -0.0023   0.0003   0.81   28.3
2019/07/21 02:05:30.900  -27.524356482  153.219836911    86.3385   1  21   0.0028   0.0031   0.0058   0.0004  -0.0023   0.0003   0.90   28.2
2019/07/21 02:05:31.000  -27.524356489  153.219836915    86.3380   1  21   0.0027   0.0031   0.0058   0.0004  -0.0023   0.0003   0.00   28.2
2019/07/21 02:05:31.100  -27.524356496  153.219836920    86.3375   1  21   0.0028   0.0031   0.0058   0.0004  -0.0023   0.0003   0.10   28.2
2019/07/21 02:05:31.200  -27.524356491  153.219836927    86.3380   1  21   0.0027   0.0031   0.0058   0.0004  -0.0023   0.0003   0.20   28.2
2019/07/21 02:05:31.300  -27.524356486  153.219836932    86.3383   1  21   0.0027   0.0031   0.0058   0.0004  -0.0023   0.0003   0.31   28.1
2019/07/21 02:05:31.400  -27.524356488  153.219836922    86.3386   1  21   0.0027   0.0031   0.0058   0.0004  -0.0023   0.0003   0.41   28.1
2019/07/21 02:05:31.500  -27.524356482  153.219836923    86.3390   1  21   0.0027   0.0031   0.0058   0.0004  -0.0023   0.0003   0.50   28.0
2019/07/21 02:05:31.600  -27.524356484  153.219836928    86.3382   1  21   0.0027   0.0031   0.0058   0.0004  -0.0023   0.0003   0.61   27.9
2019/07/21 02:05:31.700  -27.524356483  153.219836930    86.3392   1  21   0.0027   0.0031   0.0058   0.0004  -0.0023   0.0003   0.70   27.9
2019/07/21 02:05:31.800  -27.524356484  153.219836931    86.3377   1  21   0.0027   0.0031   0.0058   0.0004  -0.0023   0.0003   0.81   27.9
2019/07/21 02:05:31.900  -27.524356483  153.219836928    86.3385   1  21   0.0028   0.0031   0.0058   0.0004  -0.0023   0.0003   0.90   27.8
2019/07/21 02:05:32.000  -27.524356483  153.219836947    86.3386   1  21   0.0027   0.0031   0.0058   0.0004  -0.0023   0.0003   0.00   27.9
2019/07/21 02:05:32.100  -27.524356480  153.219836912    86.3393   1  21   0.0028   0.0031   0.0058   0.0004  -0.0023   0.0003   0.10   28.1
2019/07/21 02:05:32.200  -27.524356468  153.219836928    86.3389   1  21   0.0027   0.0031   0.0058   0.0004  -0.0023   0.0003   0.20   28.1
2019/07/21 02:05:32.300  -27.524356486  153.219836930    86.3375   1  21   0.0027   0.0031   0.0058   0.0004  -0.0023   0.0003   0.31   28.3
2019/07/21 02:05:32.400  -27.524356478  153.219836930    86.3389   1  21   0.0027   0.0031   0.0058   0.0004  -0.0023   0.0003   0.41   28.5
2019/07/21 02:05:32.500  -27.524356474  153.219836919    86.3393   1  21   0.0027   0.0031   0.0058   0.0004  -0.0023   0.0003   0.50   28.6
2019/07/21 02:05:32.600  -27.524356483  153.219836926    86.3387   1  21   0.0027   0.0031   0.0058   0.0004  -0.0023   0.0003   0.61   28.8
2019/07/21 02:05:32.700  -27.524356474  153.219836919    86.3404   1  21   0.0027   0.0031   0.0058   0.0004  -0.0023   0.0003   0.70   28.9
2019/07/21 02:05:32.800  -27.524356478  153.219836920    86.3403   1  21   0.0027   0.0031   0.0058   0.0004  -0.0023   0.0003   0.81   29.0
2019/07/21 02:05:32.900  -27.524356485  153.219836910    86.3399   1  21   0.0028   0.0031   0.0058   0.0004  -0.0023   0.0003   0.90   29.1
2019/07/21 02:05:33.000  -27.524356483  153.219836930    86.3391   1  21   0.0027   0.0031   0.0058   0.0004  -0.0023   0.0003   0.00   29.1
2019/07/21 02:05:33.100  -27.524356481  153.219836936    86.3385   1  21   0.0028   0.0031   0.0058   0.0004  -0.0023   0.0003   0.10   29.2
2019/07/21 02:05:33.200  -27.524356477  153.219836934    86.3388   1  21   0.0027   0.0031   0.0058   0.0004  -0.0023   0.0003   0.20   29.3
2019/07/21 02:05:33.300  -27.524356478  153.219836933    86.3387   1  21   0.0027   0.0031   0.0058   0.0004  -0.0023   0.0003   0.31   29.3
2019/07/21 02:05:33.400  -27.524356483  153.219836930    86.3387   1  21   0.0027   0.0031   0.0058   0.0004  -0.0023   0.0003   0.41   29.4
2019/07/21 02:05:33.500  -27.524356480  153.219836941    86.3383   1  21   0.0027   0.0031   0.0058   0.0004  -0.0023   0.0003   0.50   29.4
2019/07/21 02:05:33.600  -27.524356479  153.219836930    86.3386   1  21   0.0027   0.0031   0.0058   0.0004  -0.0023   0.0003   0.61   29.5
2019/07/21 02:05:33.700  -27.524356474  153.219836944    86.3377   1  21   0.0027   0.0031   0.0058   0.0004  -0.0023   0.0003   0.70   29.5
2019/07/21 02:05:33.800  -27.524356473  153.219836941    86.3381   1  21   0.0027   0.0031   0.0058   0.0004  -0.0023   0.0003   0.81   29.6
2019/07/21 02:05:33.900  -27.524356474  153.219836934    86.3392   1  21   0.0028   0.0031   0.0058   0.0004  -0.0023   0.0003   0.90   29.7
2019/07/21 02:05:34.000  -27.524356469  153.219836943    86.3382   1  21   0.0027   0.0031   0.0058   0.0004  -0.0023   0.0003   0.00   29.6
2019/07/21 02:05:34.100  -27.524356470  153.219836922    86.3392   1  21   0.0028   0.0031   0.0058   0.0004  -0.0023   0.0003   0.10   29.7
2019/07/21 02:05:34.200  -27.524356470  153.219836943    86.3378   1  21   0.0027   0.0031   0.0058   0.0004  -0.0023   0.0003   0.20   29.7
2019/07/21 02:05:34.300  -27.524356473  153.219836937    86.3374   1  21   0.0027   0.0031   0.0058   0.0004  -0.0023   0.0003   0.31   29.7
2019/07/21 02:05:34.400  -27.524356471  153.219836933    86.3371   1  21   0.0027   0.0031   0.0058   0.0004  -0.0023   0.0003   0.41   29.6
2019/07/21 02:05:34.500  -27.524356477  153.219836945    86.3375   1  21   0.0027   0.0031   0.0058   0.0004  -0.0023   0.0003   0.50   29.5
2019/07/21 02:05:34.600  -27.524356477  153.219836940    86.3367   1  21   0.0027   0.0031   0.0058   0.0004  -0.0023   0.0003   0.61   29.5
2019/07/21 02:05:34.700  -27.524356471  153.219836936    86.3378   1  21   0.0027   0.0031   0.0058   0.0004  -0.0023   0.0003   0.70   29.5
2019/07/21 02:05:34.800  -27.524356469  153.219836942    86.3373   1  21   0.0027   0.0031   0.0058   0.0004  -0.0023   0.0003   0.81   29.4
2019/07/21 02:05:34.900  -27.524356471  153.219836955    86.3362   1  21   0.0028   0.0031   0.0058   0.0004  -0.0023   0.0004   0.90   29.3
2019/07/21 02:05:35.000  -27.524356469  153.219836937    86.3379   1  21   0.0027   0.0031   0.0058   0.0004  -0.0023   0.0003   0.00   29.4
2019/07/21 02:05:35.100  -27.524356479  153.219836940    86.3382   1  21   0.0027   0.0031   0.0058   0.0004  -0.0023   0.0004   0.10   29.4
2019/07/21 02:05:35.200  -27.524356482  153.219836926    86.3383   1  21   0.0027   0.0031   0.0058   0.0004  -0.0023   0.0003   0.20   29.5
2019/07/21 02:05:35.300  -27.524356480  153.219836942    86.3378   1  21   0.0027   0.0031   0.0058   0.0004  -0.0023   0.0003   0.31   29.5
2019/07/21 02:05:35.400  -27.524356487  153.219836933    86.3373   1  21   0.0027   0.0031   0.0058   0.0004  -0.0023   0.0003   0.41   29.5
2019/07/21 02:05:35.500  -27.524356484  153.219836930    86.3375   1  21   0.0027   0.0031   0.0058   0.0004  -0.0023   0.0003   0.50   29.6
2019/07/21 02:05:35.600  -27.524356481  153.219836952    86.3374   1  21   0.0027   0.0031   0.0058   0.0004  -0.0023   0.0003   0.61   29.6
2019/07/21 02:05:35.700  -27.524356475  153.219836944    86.3376   1  21   0.0027   0.0031   0.0058   0.0004  -0.0023   0.0003   0.70   29.6
2019/07/21 02:05:35.800  -27.524356474  153.219836932    86.3385   1  21   0.0027   0.0031   0.0058   0.0004  -0.0023   0.0004   0.81   29.6
2019/07/21 02:05:35.900  -27.524356471  153.219836942    86.3371   1  21   0.0027   0.0031   0.0058   0.0004  -0.0023   0.0004   0.90   29.7
2019/07/21 02:05:36.000  -27.524356478  153.219836938    86.3370   1  21   0.0027   0.0031   0.0058   0.0004  -0.0023   0.0003   0.00   29.6
2019/07/21 02:05:36.100  -27.524356482  153.219836949    86.3364   1  21   0.0027   0.0031   0.0058   0.0004  -0.0023   0.0004   0.10   29.6
2019/07/21 02:05:36.200  -27.524356475  153.219836948    86.3359   1  21   0.0027   0.0031   0.0058   0.0004  -0.0023   0.0004   0.20   29.7
2019/07/21 02:05:36.300  -27.524356473  153.219836946    86.3371   1  21   0.0027   0.0031   0.0058   0.0004  -0.0023   0.0003   0.31   29.6
2019/07/21 02:05:36.400  -27.524356483  153.219836955    86.3364   1  21   0.0027   0.0031   0.0058   0.0004  -0.0023   0.0003   0.41   29.6
2019/07/21 02:05:36.500  -27.524356469  153.219836946    86.3359   1  21   0.0027   0.0031   0.0058   0.0004  -0.0023   0.0003   0.50   29.7
2019/07/21 02:05:36.600  -27.524356478  153.219836948    86.3360   1  21   0.0027   0.0031   0.0058   0.0004  -0.0023   0.0003   0.61   29.7
2019/07/21 02:05:36.700  -27.524356478  153.219836950    86.3381   1  21   0.0027   0.0031   0.0058   0.0004  -0.0023   0.0003   0.70   29.8
2019/07/21 02:05:36.800  -27.524356471  153.219836940    86.3362   1  21   0.0027   0.0031   0.0058   0.0004  -0.0023   0.0004   0.81   29.8
2019/07/21 02:05:36.900  -27.524356480  153.219836950    86.3367   1  21   0.0027   0.0031   0.0058   0.0004  -0.0023   0.0004   0.90   29.8
2019/07/21 02:05:37.000  -27.524356469  153.219836952    86.3369   1  21   0.0027   0.0031   0.0058   0.0004  -0.0023   0.0003   0.00   29.9
2019/07/21 02:05:37.100  -27.524356473  153.219836941    86.3360   1  21   0.0027   0.0031   0.0058   0.0004  -0.0023   0.0004   0.10   29.9
2019/07/21 02:05:37.200  -27.524356481  153.219836946    86.3376   1  21   0.0027   0.0031   0.0058   0.0004  -0.0023   0.0004   0.20   29.9
2019/07/21 02:05:37.300  -27.524356480  153.219836964    86.3369   1  21   0.0027   0.0031   0.0058   0.0004  -0.0023   0.0004   0.31   29.9
2019/07/21 02:05:37.400  -27.524356463  153.219836931    86.3367   1  21   0.0027   0.0031   0.0058   0.0004  -0.0023   0.0003   0.41   30.0
2019/07/21 02:05:37.500  -27.524356471  153.219836951    86.3373   1  21   0.0027   0.0031   0.0058   0.0004  -0.0023   0.0003   0.50   30.0
2019/07/21 02:05:37.600  -27.524356475  153.219836955    86.3362   1  21   0.0027   0.0031   0.0058   0.0004  -0.0023   0.0003   0.61   30.0
2019/07/21 02:05:37.700  -27.524356479  153.219836965    86.3372   1  21   0.0027   0.0031   0.0058   0.0004  -0.0023   0.0004   0.70   30.0
2019/07/21 02:05:37.800  -27.524356473  153.219836953    86.3368   1  21   0.0027   0.0031   0.0058   0.0004  -0.0023   0.0004   0.81   30.0
2019/07/21 02:05:37.900  -27.524356470  153.219836949    86.3367   1  21   0.0027   0.0031   0.0058   0.0004  -0.0023   0.0004   0.90   30.0
2019/07/21 02:05:38.000  -27.524356469  153.219836953    86.3366   1  21   0.0027   0.0031   0.0058   0.0004  -0.0023   0.0003   0.00   30.1
2019/07/21 02:05:38.100  -27.524356468  153.219836948    86.3371   1  21   0.0027   0.0031   0.0058   0.0004  -0.0023   0.0004   0.10   30.1
2019/07/21 02:05:38.200  -27.524356471  153.219836953    86.3358   1  21   0.0027   0.0031   0.0058   0.0004  -0.0023   0.0004   0.20   30.1
2019/07/21 02:05:38.300  -27.524356476  153.219836957    86.3366   1  21   0.0027   0.0031   0.0058   0.0004  -0.0023   0.0004   0.31   30.1
2019/07/21 02:05:38.400  -27.524356469  153.219836951    86.3360   1  21   0.0027   0.0031   0.0058   0.0004  -0.0023   0.0004   0.41   30.2
2019/07/21 02:05:38.500  -27.524356468  153.219836949    86.3358   1  21   0.0027   0.0031   0.0058   0.0004  -0.0023   0.0004   0.50   30.2
2019/07/21 02:05:38.600  -27.524356472  153.219836947    86.3360   1  21   0.0027   0.0031   0.0058   0.0004  -0.0023   0.0004   0.61   30.3
2019/07/21 02:05:38.700  -27.524356468  153.219836948    86.3358   1  21   0.0027   0.0031   0.0058   0.0004  -0.0023   0.0004   0.70   30.3
2019/07/21 02:05:38.800  -27.524356474  153.219836950    86.3362   1  21   0.0027   0.0031   0.0058   0.0004  -0.0023   0.0004   0.81   30.4
2019/07/21 02:05:38.900  -27.524356463  153.219836957    86.3354   1  21   0.0027   0.0031   0.0058   0.0004  -0.0023   0.0004   0.90   30.4
2019/07/21 02:05:39.000  -27.524356473  153.219836950    86.3355   1  21   0.0027   0.0031   0.0058   0.0004  -0.0023   0.0003   0.00   30.4
2019/07/21 02:05:39.100  -27.524356479  153.219836936    86.3354   1  21   0.0027   0.0031   0.0058   0.0004  -0.0023   0.0004   0.10   30.4
2019/07/21 02:05:39.200  -27.524356484  153.219836937    86.3362   1  21   0.0027   0.0031   0.0058   0.0004  -0.0023   0.0004   0.20   30.4
2019/07/21 02:05:39.300  -27.524356478  153.219836948    86.3355   1  21   0.0027   0.0031   0.0058   0.0004  -0.0023   0.0004   0.31   30.4
2019/07/21 02:05:39.400  -27.524356477  153.219836942    86.3361   1  21   0.0027   0.0031   0.0058   0.0004  -0.0023   0.0004   0.41   30.5
2019/07/21 02:05:39.500  -27.524356488  153.219836942    86.3367   1  21   0.0027   0.0031   0.0058   0.0004  -0.0023   0.0004   0.50   30.5
2019/07/21 02:05:39.600  -27.524356474  153.219836941    86.3365   1  21   0.0027   0.0031   0.0058   0.0004  -0.0023   0.0004   0.61   30.5
2019/07/21 02:05:39.700  -27.524356479  153.219836942    86.3356   1  21   0.0027   0.0031   0.0058   0.0004  -0.0023   0.0004   0.70   30.5
2019/07/21 02:05:39.800  -27.524356477  153.219836946    86.3359   1  21   0.0027   0.0031   0.0058   0.0004  -0.0023   0.0004   0.81   30.4
2019/07/21 02:05:39.900  -27.524356478  153.219836945    86.3358   1  21   0.0027   0.0031   0.0058   0.0004  -0.0023   0.0004   0.90   30.5
2019/07/21 02:05:40.000  -27.524356482  153.219836946    86.3378   1  21   0.0027   0.0031   0.0058   0.0004  -0.0023   0.0003   0.00   30.6
2019/07/21 02:05:40.100  -27.524356483  153.219836943    86.3360   1  21   0.0027   0.0031   0.0058   0.0004  -0.0023   0.0004   0.10   30.5
2019/07/21 02:05:40.200  -27.524356484  153.219836952    86.3358   1  21   0.0027   0.0031   0.0058   0.0004  -0.0023   0.0004   0.20   30.5
2019/07/21 02:05:40.300  -27.524356481  153.219836957    86.3355   1  21   0.0027   0.0031   0.0058   0.0004  -0.0023   0.0004   0.31   30.6
2019/07/21 02:05:40.400  -27.524356480  153.219836956    86.3359   1  21   0.0027   0.0031   0.0058   0.0004  -0.0023   0.0004   0.41   30.6
2019/07/21 02:05:40.500  -27.524356484  153.219836962    86.3350   1  21   0.0027   0.0031   0.0058   0.0004  -0.0023   0.0004   0.50   30.7
2019/07/21 02:05:40.600  -27.524356484  153.219836949    86.3366   1  21   0.0027   0.0031   0.0058   0.0004  -0.0023   0.0004   0.61   30.8
2019/07/21 02:05:40.700  -27.524356480  153.219836959    86.3365   1  21   0.0027   0.0031   0.0058   0.0004  -0.0023   0.0004   0.70   30.8
2019/07/21 02:05:40.800  -27.524356486  153.219836951    86.3369   1  21   0.0027   0.0031   0.0058   0.0004  -0.0023   0.0004   0.81   30.9
2019/07/21 02:05:40.900  -27.524356480  153.219836963    86.3352   1  21   0.0027   0.0031   0.0058   0.0004  -0.0023   0.0004   0.90   30.9
2019/07/21 02:05:41.000  -27.524356469  153.219836963    86.3344   1  21   0.0027   0.0031   0.0058   0.0004  -0.0023   0.0003   0.00   30.9
2019/07/21 02:05:41.100  -27.524356480  153.219836942    86.3355   1  21   0.0027   0.0031   0.0058   0.0004  -0.0023   0.0004   0.10   30.8
2019/07/21 02:05:41.200  -27.524356489  153.219836961    86.3353   1  21   0.0027   0.0031   0.0058   0.0004  -0.0023   0.0004   0.20   30.8
2019/07/21 02:05:41.300  -27.524356477  153.219836965    86.3348   1  21   0.0027   0.0031   0.0058   0.0004  -0.0023   0.0004   0.31   30.8
2019/07/21 02:05:41.400  -27.524356475  153.219836966    86.3357   1  21   0.0027   0.0031   0.0058   0.0004  -0.0023   0.0004   0.41   30.9
2019/07/21 02:05:41.500  -27.524356474  153.219836950    86.3361   1  21   0.0027   0.0031   0.0058   0.0004  -0.0023   0.0004   0.50   30.9
2019/07/21 02:05:41.600  -27.524356481  153.219836957    86.3374   1  21   0.0027   0.0031   0.0058   0.0004  -0.0023   0.0004   0.61   30.9
2019/07/21 02:05:41.700  -27.524356474  153.219836952    86.3379   1  21   0.0027   0.0031   0.0058   0.0004  -0.0023   0.0004   0.70   31.0
2019/07/21 02:05:41.800  -27.524356461  153.219836950    86.3371   1  21   0.0027   0.0031   0.0058   0.0004  -0.0023   0.0004   0.81   30.9
2019/07/21 02:05:41.900  -27.524356469  153.219836965    86.3364   1  21   0.0027   0.0031   0.0058   0.0004  -0.0023   0.0004   0.90   31.0
2019/07/21 02:05:42.000  -27.524356457  153.219836943    86.3379   1  21   0.0027   0.0031   0.0058   0.0004  -0.0023   0.0003   0.00   31.0
2019/07/21 02:05:42.100  -27.524356469  153.219836952    86.3376   1  21   0.0027   0.0031   0.0058   0.0004  -0.0023   0.0004   0.10   31.0
2019/07/21 02:05:42.200  -27.524356466  153.219836968    86.3382   1  21   0.0027   0.0031   0.0058   0.0004  -0.0023   0.0004   0.20   31.0
2019/07/21 02:05:42.300  -27.524356470  153.219836951    86.3402   1  21   0.0027   0.0031   0.0058   0.0004  -0.0023   0.0004   0.31   31.0
2019/07/21 02:05:42.400  -27.524356469  153.219836945    86.3388   1  21   0.0027   0.0031   0.0058   0.0004  -0.0023   0.0004   0.41   31.0
2019/07/21 02:05:42.500  -27.524356475  153.219836944    86.3393   1  21   0.0027   0.0031   0.0058   0.0004  -0.0023   0.0004   0.50   31.0
2019/07/21 02:05:42.600  -27.524356470  153.219836954    86.3397   1  21   0.0027   0.0031   0.0058   0.0004  -0.0023   0.0004   0.61   31.1
2019/07/21 02:05:42.700  -27.524356461  153.219836940    86.3396   1  21   0.0027   0.0031   0.0058   0.0004  -0.0023   0.0004   0.70   31.1
2019/07/21 02:05:42.800  -27.524356474  153.219836944    86.3396   1  21   0.0027   0.0031   0.0058   0.0004  -0.0023   0.0004   0.81   31.1
2019/07/21 02:05:42.900  -27.524356468  153.219836959    86.3398   1  21   0.0027   0.0031   0.0058   0.0004  -0.0023   0.0004   0.90   31.1
2019/07/21 02:05:43.000  -27.524356476  153.219836944    86.3397   1  21   0.0027   0.0031   0.0058   0.0004  -0.0023   0.0003   0.00   31.2
2019/07/21 02:05:43.100  -27.524356481  153.219836951    86.3381   1  21   0.0027   0.0031   0.0058   0.0004  -0.0023   0.0004   0.10   31.2
2019/07/21 02:05:43.200  -27.524356492  153.219836953    86.3377   1  21   0.0027   0.0031   0.0058   0.0004  -0.0023   0.0004   0.20   31.3
2019/07/21 02:05:43.300  -27.524356476  153.219836944    86.3379   1  21   0.0027   0.0031   0.0058   0.0004  -0.0023   0.0004   0.31   31.3
2019/07/21 02:05:43.400  -27.524356491  153.219836948    86.3389   1  21   0.0027   0.0031   0.0058   0.0004  -0.0023   0.0004   0.41   31.4
2019/07/21 02:05:43.500  -27.524356479  153.219836957    86.3379   1  21   0.0027   0.0031   0.0058   0.0004  -0.0023   0.0004   0.50   31.4
2019/07/21 02:05:43.600  -27.524356470  153.219836955    86.3374   1  21   0.0027   0.0031   0.0058   0.0004  -0.0023   0.0004   0.61   31.4
2019/07/21 02:05:43.700  -27.524356479  153.219836955    86.3376   1  21   0.0027   0.0031   0.0058   0.0004  -0.0023   0.0004   0.70   31.4
2019/07/21 02:05:43.800  -27.524356478  153.219836948    86.3385   1  21   0.0027   0.0031   0.0058   0.0004  -0.0023   0.0004   0.81   31.5
2019/07/21 02:05:43.900  -27.524356476  153.219836957    86.3387   1  21   0.0027   0.0031   0.0058   0.0004  -0.0023   0.0004   0.90   31.5
2019/07/21 02:05:44.000  -27.524356477  153.219836940    86.3399   1  21   0.0027   0.0031   0.0058   0.0004  -0.0023   0.0003   0.00   31.5
2019/07/21 02:05:44.100  -27.524356477  153.219836945    86.3407   1  21   0.0027   0.0031   0.0058   0.0004  -0.0023   0.0004   0.10   31.4
2019/07/21 02:05:44.200  -27.524356472  153.219836947    86.3400   1  21   0.0027   0.0031   0.0058   0.0004  -0.0023   0.0004   0.20   31.4
2019/07/21 02:05:44.300  -27.524356479  153.219836956    86.3400   1  21   0.0027   0.0031   0.0058   0.0004  -0.0023   0.0004   0.31   31.4
2019/07/21 02:05:44.400  -27.524356477  153.219836946    86.3403   1  21   0.0027   0.0031   0.0058   0.0004  -0.0023   0.0004   0.41   31.3
2019/07/21 02:05:44.500  -27.524356472  153.219836942    86.3393   1  21   0.0027   0.0031   0.0058   0.0004  -0.0023   0.0004   0.50   31.4
2019/07/21 02:05:44.600  -27.524356484  153.219836949    86.3382   1  21   0.0027   0.0031   0.0058   0.0004  -0.0023   0.0004   0.61   31.3
2019/07/21 02:05:44.700  -27.524356473  153.219836948    86.3380   1  21   0.0027   0.0031   0.0058   0.0004  -0.0023   0.0004   0.70   31.3
2019/07/21 02:05:44.800  -27.524356478  153.219836943    86.3385   1  21   0.0027   0.0031   0.0058   0.0004  -0.0023   0.0004   0.81   31.3
2019/07/21 02:05:44.900  -27.524356482  153.219836949    86.3393   1  21   0.0027   0.0031   0.0058   0.0004  -0.0023   0.0004   0.90   31.3
2019/07/21 02:05:45.000  -27.524356471  153.219836937    86.3401   1  21   0.0027   0.0031   0.0058   0.0004  -0.0023   0.0003   0.00   31.3
2019/07/21 02:05:45.100  -27.524356480  153.219836950    86.3377   1  21   0.0027   0.0031   0.0058   0.0004  -0.0023   0.0004   0.10   31.3
2019/07/21 02:05:45.200  -27.524356465  153.219836938    86.3383   1  21   0.0027   0.0031   0.0058   0.0004  -0.0023   0.0004   0.20   31.4
2019/07/21 02:05:45.300  -27.524356468  153.219836947    86.3391   1  21   0.0027   0.0031   0.0058   0.0004  -0.0023   0.0004   0.31   31.4
2019/07/21 02:05:45.400  -27.524356474  153.219836949    86.3385   1  21   0.0027   0.0031   0.0058   0.0004  -0.0023   0.0004   0.41   31.4
2019/07/21 02:05:45.500  -27.524356473  153.219836939    86.3396   1  21   0.0027   0.0031   0.0058   0.0004  -0.0023   0.0004   0.50   31.4
2019/07/21 02:05:45.600  -27.524356464  153.219836937    86.3397   1  21   0.0027   0.0031   0.0058   0.0004  -0.0023   0.0004   0.61   31.4
2019/07/21 02:05:45.700  -27.524356468  153.219836937    86.3401   1  21   0.0027   0.0031   0.0058   0.0004  -0.0023   0.0004   0.70   31.4
2019/07/21 02:05:45.800  -27.524356476  153.219836953    86.3380   1  21   0.0027   0.0031   0.0058   0.0004  -0.0023   0.0004   0.81   31.5
2019/07/21 02:05:45.900  -27.524356466  153.219836949    86.3382   1  21   0.0027   0.0031   0.0058   0.0004  -0.0023   0.0004   0.90   31.5
2019/07/21 02:05:46.000  -27.524356464  153.219836950    86.3383   1  21   0.0027   0.0031   0.0058   0.0004  -0.0023   0.0003   0.00   31.5
2019/07/21 02:05:46.100  -27.524356466  153.219836952    86.3381   1  21   0.0027   0.0031   0.0058   0.0004  -0.0023   0.0004   0.10   31.5
2019/07/21 02:05:46.200  -27.524356472  153.219836952    86.3385   1  21   0.0027   0.0031   0.0058   0.0004  -0.0023   0.0004   0.20   31.5
2019/07/21 02:05:46.300  -27.524356467  153.219836961    86.3383   1  21   0.0027   0.0031   0.0058   0.0004  -0.0023   0.0004   0.31   31.5
2019/07/21 02:05:46.400  -27.524356473  153.219836953    86.3386   1  21   0.0027   0.0031   0.0058   0.0004  -0.0023   0.0004   0.41   31.5
2019/07/21 02:05:46.500  -27.524356463  153.219836949    86.3390   1  21   0.0027   0.0031   0.0058   0.0004  -0.0023   0.0004   0.50   31.6
2019/07/21 02:05:46.600  -27.524356461  153.219836950    86.3379   1  21   0.0027   0.0031   0.0058   0.0004  -0.0023   0.0004   0.61   31.6
2019/07/21 02:05:46.700  -27.524356466  153.219836946    86.3381   1  21   0.0027   0.0031   0.0058   0.0004  -0.0023   0.0004   0.70   31.6
2019/07/21 02:05:46.800  -27.524356463  153.219836949    86.3379   1  21   0.0027   0.0031   0.0058   0.0004  -0.0023   0.0004   0.81   31.6
2019/07/21 02:05:46.900  -27.524356471  153.219836948    86.3381   1  21   0.0027   0.0031   0.0058   0.0004  -0.0023   0.0004   0.90   31.6
2019/07/21 02:05:47.000  -27.524356473  153.219836952    86.3380   1  21   0.0027   0.0031   0.0058   0.0004  -0.0023   0.0003   0.00   31.6
2019/07/21 02:05:47.100  -27.524356468  153.219836953    86.3366   1  21   0.0027   0.0031   0.0058   0.0004  -0.0023   0.0004   0.10   31.6
2019/07/21 02:05:47.200  -27.524356473  153.219836954    86.3373   1  21   0.0027   0.0031   0.0058   0.0004  -0.0023   0.0004   0.20   31.6
2019/07/21 02:05:47.300  -27.524356471  153.219836939    86.3391   1  21   0.0027   0.0031   0.0058   0.0004  -0.0023   0.0004   0.31   31.6
2019/07/21 02:05:47.400  -27.524356468  153.219836947    86.3376   1  21   0.0027   0.0031   0.0058   0.0004  -0.0023   0.0004   0.41   31.6
2019/07/21 02:05:47.500  -27.524356471  153.219836954    86.3379   1  21   0.0027   0.0031   0.0058   0.0004  -0.0023   0.0004   0.50   31.6
2019/07/21 02:05:47.600  -27.524356468  153.219836943    86.3387   1  21   0.0027   0.0031   0.0058   0.0004  -0.0023   0.0004   0.61   31.6
2019/07/21 02:05:47.700  -27.524356474  153.219836953    86.3381   1  21   0.0027   0.0031   0.0058   0.0004  -0.0023   0.0004   0.70   31.6
2019/07/21 02:05:47.800  -27.524356470  153.219836941    86.3392   1  21   0.0027   0.0031   0.0058   0.0004  -0.0023   0.0004   0.81   31.6
2019/07/21 02:05:47.900  -27.524356476  153.219836957    86.3381   1  21   0.0027   0.0031   0.0058   0.0004  -0.0023   0.0004   0.90   31.6
2019/07/21 02:05:48.000  -27.524356474  153.219836950    86.3380   1  21   0.0027   0.0031   0.0058   0.0004  -0.0023   0.0004   0.00   31.6
2019/07/21 02:05:48.100  -27.524356474  153.219836948    86.3381   1  21   0.0027   0.0031   0.0058   0.0004  -0.0023   0.0004   0.10   31.5
2019/07/21 02:05:48.200  -27.524356471  153.219836948    86.3374   1  21   0.0027   0.0031   0.0058   0.0004  -0.0023   0.0004   0.20   31.6
2019/07/21 02:05:48.300  -27.524356474  153.219836958    86.3369   1  21   0.0027   0.0031   0.0058   0.0004  -0.0023   0.0004   0.31   31.5
2019/07/21 02:05:48.400  -27.524356475  153.219836960    86.3371   1  21   0.0027   0.0031   0.0058   0.0004  -0.0023   0.0004   0.41   31.5
2019/07/21 02:05:48.500  -27.524356481  153.219836944    86.3380   1  21   0.0027   0.0031   0.0058   0.0004  -0.0023   0.0004   0.50   31.6
2019/07/21 02:05:48.600  -27.524356458  153.219836957    86.3367   1  21   0.0027   0.0031   0.0058   0.0004  -0.0023   0.0004   0.61   31.6
2019/07/21 02:05:48.700  -27.524356468  153.219836957    86.3379   1  21   0.0027   0.0031   0.0058   0.0004  -0.0023   0.0004   0.70   31.6
2019/07/21 02:05:48.800  -27.524356466  153.219836950    86.3378   1  21   0.0027   0.0031   0.0058   0.0004  -0.0023   0.0004   0.81   31.6
2019/07/21 02:05:48.900  -27.524356472  153.219836965    86.3354   1  21   0.0027   0.0031   0.0058   0.0004  -0.0023   0.0004   0.90   31.6
2019/07/21 02:05:49.000  -27.524356481  153.219836958    86.3366   1  21   0.0027   0.0031   0.0058   0.0004  -0.0023   0.0004   0.00   31.6
2019/07/21 02:05:49.100  -27.524356478  153.219836962    86.3362   1  21   0.0027   0.0031   0.0058   0.0004  -0.0023   0.0004   0.10   31.6
2019/07/21 02:05:49.200  -27.524356475  153.219836950    86.3371   1  21   0.0027   0.0031   0.0058   0.0004  -0.0023   0.0004   0.20   31.6
2019/07/21 02:05:49.300  -27.524356478  153.219836949    86.3367   1  21   0.0027   0.0031   0.0058   0.0004  -0.0023   0.0004   0.31   31.5
2019/07/21 02:05:49.400  -27.524356482  153.219836963    86.3370   1  21   0.0027   0.0031   0.0058   0.0004  -0.0023   0.0004   0.41   31.6
2019/07/21 02:05:49.500  -27.524356478  153.219836950    86.3383   1  21   0.0027   0.0031   0.0058   0.0004  -0.0023   0.0004   0.50   31.5
2019/07/21 02:05:49.600  -27.524356478  153.219836947    86.3371   1  21   0.0027   0.0031   0.0058   0.0004  -0.0023   0.0004   0.61   31.5
2019/07/21 02:05:49.700  -27.524356480  153.219836957    86.3374   1  21   0.0027   0.0031   0.0058   0.0004  -0.0023   0.0004   0.70   31.5
2019/07/21 02:05:49.800  -27.524356478  153.219836952    86.3380   1  21   0.0027   0.0031   0.0058   0.0004  -0.0023   0.0004   0.81   31.5
2019/07/21 02:05:49.900  -27.524356478  153.219836950    86.3380   1  21   0.0027   0.0031   0.0058   0.0004  -0.0023   0.0004   0.90   31.5
2019/07/21 02:05:50.000  -27.524356479  153.219836950    86.3375   1  21   0.0027   0.0031   0.0058   0.0004  -0.0023   0.0004   0.00   31.4
2019/07/21 02:05:50.100  -27.524356466  153.219836946    86.3377   1  21   0.0027   0.0031   0.0058   0.0004  -0.0023   0.0004   0.10   31.4
2019/07/21 02:05:50.200  -27.524356473  153.219836951    86.3384   1  21   0.0027   0.0031   0.0058   0.0004  -0.0023   0.0004   0.20   31.5
2019/07/21 02:05:50.300  -27.524356467  153.219836934    86.3386   1  21   0.0027   0.0031   0.0058   0.0004  -0.0023   0.0004   0.31   31.5
2019/07/21 02:05:50.400  -27.524356476  153.219836950    86.3382   1  21   0.0027   0.0031   0.0058   0.0004  -0.0023   0.0004   0.41   31.5
2019/07/21 02:05:50.500  -27.524356467  153.219836955    86.3376   1  21   0.0027   0.0031   0.0058   0.0004  -0.0023   0.0004   0.50   31.5
2019/07/21 02:05:50.600  -27.524356471  153.219836945    86.3365   1  21   0.0027   0.0031   0.0058   0.0004  -0.0023   0.0004   0.61   31.5
2019/07/21 02:05:50.700  -27.524356472  153.219836946    86.3360   1  21   0.0027   0.0031   0.0058   0.0004  -0.0023   0.0004   0.70   31.6
2019/07/21 02:05:50.800  -27.524356474  153.219836960    86.3367   1  21   0.0027   0.0031   0.0058   0.0004  -0.0023   0.0004   0.81   31.5
2019/07/21 02:05:50.900  -27.524356471  153.219836948    86.3377   1  21   0.0027   0.0031   0.0058   0.0004  -0.0023   0.0004   0.90   31.6
2019/07/21 02:05:51.000  -27.524356462  153.219836944    86.3374   1  21   0.0027   0.0031   0.0058   0.0004  -0.0023   0.0004   0.00   31.7
2019/07/21 02:05:51.100  -27.524356465  153.219836951    86.3396   1  21   0.0027   0.0031   0.0058   0.0004  -0.0023   0.0004   0.10   31.6
2019/07/21 02:05:51.200  -27.524356469  153.219836933    86.3421   1  21   0.0027   0.0031   0.0058   0.0004  -0.0023   0.0004   0.20   31.7
2019/07/21 02:05:51.300  -27.524356473  153.219836937    86.3407   1  21   0.0027   0.0031   0.0058   0.0004  -0.0023   0.0004   0.31   31.8
2019/07/21 02:05:51.400  -27.524356461  153.219836947    86.3417   1  21   0.0027   0.0031   0.0058   0.0004  -0.0023   0.0004   0.41   31.8
2019/07/21 02:05:51.500  -27.524356467  153.219836942    86.3416   1  21   0.0027   0.0031   0.0058   0.0004  -0.0023   0.0004   0.50   31.8
2019/07/21 02:05:51.600  -27.524356463  153.219836945    86.3415   1  21   0.0027   0.0031   0.0058   0.0004  -0.0023   0.0004   0.61   31.8
2019/07/21 02:05:51.700  -27.524356458  153.219836935    86.3424   1  21   0.0027   0.0031   0.0058   0.0004  -0.0023   0.0004   0.70   31.9
2019/07/21 02:05:51.800  -27.524356459  153.219836946    86.3413   1  21   0.0027   0.0031   0.0058   0.0004  -0.0023   0.0004   0.81   31.9
2019/07/21 02:05:51.900  -27.524356470  153.219836954    86.3402   1  21   0.0027   0.0031   0.0058   0.0004  -0.0023   0.0004   0.90   32.0
2019/07/21 02:05:52.000  -27.524356476  153.219836946    86.3414   1  21   0.0027   0.0031   0.0058   0.0004  -0.0023   0.0004   0.00   32.0
2019/07/21 02:05:52.100  -27.524356468  153.219836937    86.3419   1  21   0.0027   0.0031   0.0058   0.0004  -0.0023   0.0004   0.10   32.1
2019/07/21 02:05:52.200  -27.524356475  153.219836926    86.3409   1  21   0.0027   0.0031   0.0058   0.0004  -0.0023   0.0004   0.20   32.1
2019/07/21 02:05:52.300  -27.524356471  153.219836944    86.3406   1  21   0.0027   0.0031   0.0058   0.0004  -0.0023   0.0004   0.31   32.2
2019/07/21 02:05:52.400  -27.524356473  153.219836947    86.3416   1  21   0.0027   0.0031   0.0058   0.0004  -0.0023   0.0004   0.41   32.2
2019/07/21 02:05:52.500  -27.524356475  153.219836944    86.3405   1  21   0.0027   0.0031   0.0058   0.0004  -0.0023   0.0004   0.50   32.3
2019/07/21 02:05:52.600  -27.524356474  153.219836944    86.3405   1  21   0.0027   0.0031   0.0058   0.0004  -0.0023   0.0004   0.61   32.4
2019/07/21 02:05:52.700  -27.524356467  153.219836936    86.3400   1  21   0.0027   0.0031   0.0058   0.0004  -0.0023   0.0004   0.70   32.4
2019/07/21 02:05:52.800  -27.524356463  153.219836941    86.3409   1  21   0.0027   0.0031   0.0058   0.0004  -0.0023   0.0004   0.81   32.5
2019/07/21 02:05:52.900  -27.524356467  153.219836930    86.3411   1  21   0.0027   0.0031   0.0058   0.0004  -0.0023   0.0004   0.90   32.6
2019/07/21 02:05:53.000  -27.524356466  153.219836928    86.3393   1  21   0.0027   0.0031   0.0058   0.0004  -0.0023   0.0004   0.00   32.5
2019/07/21 02:05:53.100  -27.524356469  153.219836946    86.3392   1  21   0.0027   0.0031   0.0058   0.0004  -0.0023   0.0004   0.10   32.5
2019/07/21 02:05:53.200  -27.524356465  153.219836939    86.3403   1  21   0.0027   0.0031   0.0058   0.0004  -0.0023   0.0004   0.20   32.4
2019/07/21 02:05:53.300  -27.524356469  153.219836950    86.3389   1  21   0.0027   0.0031   0.0058   0.0004  -0.0023   0.0004   0.31   32.4
2019/07/21 02:05:53.400  -27.524356464  153.219836941    86.3401   1  21   0.0027   0.0031   0.0058   0.0004  -0.0023   0.0004   0.41   32.4
2019/07/21 02:05:53.500  -27.524356462  153.219836944    86.3403   1  21   0.0027   0.0031   0.0058   0.0004  -0.0023   0.0004   0.50   32.4
2019/07/21 02:05:53.600  -27.524356469  153.219836931    86.3401   1  21   0.0027   0.0031   0.0058   0.0004  -0.0023   0.0004   0.61   32.4
2019/07/21 02:05:53.700  -27.524356468  153.219836938    86.3410   1  21   0.0027   0.0031   0.0058   0.0004  -0.0023   0.0004   0.70   32.4
2019/07/21 02:05:53.800  -27.524356462  153.219836951    86.3399   1  21   0.0027   0.0031   0.0058   0.0004  -0.0023   0.0004   0.81   32.4
2019/07/21 02:05:53.900  -27.524356466  153.219836947    86.3391   1  21   0.0027   0.0031   0.0058   0.0004  -0.0023   0.0004   0.90   32.4
2019/07/21 02:05:54.000  -27.524356460  153.219836955    86.3397   1  21   0.0027   0.0031   0.0058   0.0004  -0.0023   0.0004   0.00   32.4
2019/07/21 02:05:54.100  -27.524356468  153.219836938    86.3399   1  21   0.0027   0.0031   0.0058   0.0004  -0.0023   0.0004   0.10   32.4
2019/07/21 02:05:54.200  -27.524356475  153.219836941    86.3397   1  21   0.0027   0.0031   0.0058   0.0004  -0.0023   0.0004   0.20   32.5
2019/07/21 02:05:54.300  -27.524356465  153.219836939    86.3407   1  21   0.0027   0.0031   0.0058   0.0004  -0.0023   0.0004   0.31   32.5
2019/07/21 02:05:54.400  -27.524356464  153.219836938    86.3400   1  21   0.0027   0.0031   0.0058   0.0004  -0.0023   0.0004   0.41   32.5
2019/07/21 02:05:54.500  -27.524356467  153.219836947    86.3397   1  21   0.0027   0.0031   0.0058   0.0004  -0.0023   0.0004   0.50   32.5
2019/07/21 02:05:54.600  -27.524356467  153.219836942    86.3391   1  21   0.0027   0.0031   0.0058   0.0004  -0.0023   0.0004   0.61   32.5
2019/07/21 02:05:54.700  -27.524356467  153.219836943    86.3396   1  21   0.0027   0.0031   0.0058   0.0004  -0.0023   0.0004   0.70   32.5
2019/07/21 02:05:54.800  -27.524356452  153.219836945    86.3391   1  21   0.0027   0.0031   0.0058   0.0004  -0.0023   0.0004   0.81   32.6
2019/07/21 02:05:54.900  -27.524356458  153.219836943    86.3386   1  21   0.0027   0.0031   0.0058   0.0004  -0.0023   0.0004   0.90   32.6
2019/07/21 02:05:55.000  -27.524356468  153.219836931    86.3389   1  21   0.0027   0.0031   0.0058   0.0004  -0.0023   0.0004   0.00   32.5
2019/07/21 02:05:55.100  -27.524356466  153.219836932    86.3382   1  21   0.0027   0.0031   0.0058   0.0004  -0.0023   0.0004   0.10   32.5
2019/07/21 02:05:55.200  -27.524356470  153.219836942    86.3378   1  21   0.0027   0.0031   0.0058   0.0004  -0.0023   0.0004   0.20   32.5
2019/07/21 02:05:55.300  -27.524356464  153.219836943    86.3372   1  21   0.0027   0.0031   0.0058   0.0004  -0.0023   0.0004   0.31   32.5
2019/07/21 02:05:55.400  -27.524356471  153.219836947    86.3380   1  21   0.0027   0.0031   0.0058   0.0004  -0.0023   0.0004   0.41   32.4
2019/07/21 02:05:55.500  -27.524356466  153.219836931    86.3390   1  21   0.0027   0.0031   0.0058   0.0004  -0.0023   0.0004   0.50   32.4
2019/07/21 02:05:55.600  -27.524356463  153.219836943    86.3377   1  21   0.0027   0.0031   0.0058   0.0004  -0.0023   0.0004   0.61   32.4
2019/07/21 02:05:55.700  -27.524356468  153.219836950    86.3365   1  21   0.0027   0.0031   0.0058   0.0004  -0.0023   0.0004   0.70   32.4
2019/07/21 02:05:55.800  -27.524356465  153.219836929    86.3381   1  21   0.0027   0.0031   0.0058   0.0004  -0.0023   0.0004   0.81   32.3
2019/07/21 02:05:55.900  -27.524356473  153.219836935    86.3373   1  21   0.0027   0.0031   0.0058   0.0004  -0.0023   0.0004   0.90   32.4
2019/07/21 02:05:56.000  -27.524356456  153.219836938    86.3384   1  21   0.0027   0.0031   0.0058   0.0004  -0.0023   0.0004   0.00   32.3
2019/07/21 02:05:56.100  -27.524356470  153.219836937    86.3385   1  21   0.0027   0.0031   0.0058   0.0004  -0.0023   0.0004   0.10   32.3
2019/07/21 02:05:56.200  -27.524356481  153.219836937    86.3384   1  21   0.0027   0.0031   0.0058   0.0004  -0.0023   0.0004   0.20   32.3
2019/07/21 02:05:56.300  -27.524356474  153.219836927    86.3390   1  21   0.0027   0.0031   0.0058   0.0004  -0.0023   0.0004   0.31   32.2
2019/07/21 02:05:56.400  -27.524356475  153.219836940    86.3368   1  21   0.0027   0.0031   0.0058   0.0004  -0.0023   0.0004   0.41   32.2
2019/07/21 02:05:56.500  -27.524356467  153.219836937    86.3373   1  21   0.0027   0.0031   0.0058   0.0004  -0.0023   0.0004   0.50   32.2
2019/07/21 02:05:56.600  -27.524356465  153.219836944    86.3359   1  21   0.0027   0.0031   0.0058   0.0004  -0.0023   0.0004   0.61   32.1
2019/07/21 02:05:56.700  -27.524356466  153.219836929    86.3368   1  21   0.0027   0.0031   0.0058   0.0004  -0.0023   0.0004   0.70   32.1
2019/07/21 02:05:56.800  -27.524356476  153.219836940    86.3375   1  21   0.0027   0.0031   0.0058   0.0004  -0.0023   0.0004   0.81   32.1
2019/07/21 02:05:56.900  -27.524356469  153.219836947    86.3377   1  21   0.0027   0.0031   0.0058   0.0004  -0.0023   0.0004   0.90   32.1
2019/07/21 02:05:57.000  -27.524356478  153.219836942    86.3382   1  21   0.0027   0.0031   0.0058   0.0004  -0.0023   0.0004   0.00   32.1
2019/07/21 02:05:57.100  -27.524356470  153.219836939    86.3385   1  21   0.0027   0.0031   0.0058   0.0004  -0.0023   0.0004   0.10   32.2
2019/07/21 02:05:57.200  -27.524356466  153.219836937    86.3390   1  21   0.0027   0.0031   0.0058   0.0004  -0.0023   0.0004   0.20   32.2
2019/07/21 02:05:57.300  -27.524356476  153.219836943    86.3385   1  21   0.0027   0.0031   0.0058   0.0004  -0.0023   0.0004   0.31   32.2
2019/07/21 02:05:57.400  -27.524356469  153.219836936    86.3392   1  21   0.0027   0.0031   0.0058   0.0004  -0.0023   0.0004   0.41   32.2
2019/07/21 02:05:57.500  -27.524356470  153.219836935    86.3403   1  21   0.0027   0.0031   0.0058   0.0004  -0.0023   0.0004   0.50   32.3
2019/07/21 02:05:57.600  -27.524356471  153.219836936    86.3398   1  21   0.0027   0.0031   0.0058   0.0004  -0.0023   0.0004   0.61   32.3
2019/07/21 02:05:57.700  -27.524356472  153.219836932    86.3406   1  21   0.0027   0.0031   0.0058   0.0004  -0.0023   0.0004   0.70   32.3
2019/07/21 02:05:57.800  -27.524356471  153.219836935    86.3412   1  21   0.0027   0.0031   0.0058   0.0004  -0.0023   0.0004   0.81   32.3
2019/07/21 02:05:57.900  -27.524356464  153.219836931    86.3423   1  21   0.0027   0.0031   0.0058   0.0004  -0.0023   0.0004   0.90   32.3
2019/07/21 02:05:58.000  -27.524356470  153.219836934    86.3403   1  21   0.0027   0.0031   0.0058   0.0004  -0.0023   0.0004   0.00   32.3
2019/07/21 02:05:58.100  -27.524356466  153.219836926    86.3402   1  21   0.0027   0.0031   0.0058   0.0004  -0.0023   0.0004   0.10   32.3
2019/07/21 02:05:58.200  -27.524356463  153.219836928    86.3390   1  21   0.0027   0.0031   0.0058   0.0004  -0.0023   0.0004   0.20   32.3
2019/07/21 02:05:58.300  -27.524356469  153.219836934    86.3402   1  21   0.0027   0.0031   0.0058   0.0004  -0.0023   0.0004   0.31   32.3
2019/07/21 02:05:58.400  -27.524356466  153.219836925    86.3385   1  21   0.0027   0.0031   0.0058   0.0004  -0.0023   0.0004   0.41   32.3
2019/07/21 02:05:58.500  -27.524356467  153.219836927    86.3407   1  21   0.0027   0.0031   0.0058   0.0004  -0.0023   0.0004   0.50   32.3
2019/07/21 02:05:58.600  -27.524356468  153.219836938    86.3387   1  21   0.0027   0.0031   0.0058   0.0004  -0.0023   0.0004   0.61   32.3
2019/07/21 02:05:58.700  -27.524356472  153.219836933    86.3389   1  21   0.0027   0.0031   0.0058   0.0004  -0.0023   0.0004   0.70   32.3
2019/07/21 02:05:58.800  -27.524356467  153.219836944    86.3387   1  21   0.0027   0.0031   0.0058   0.0004  -0.0023   0.0004   0.81   32.3
2019/07/21 02:05:58.900  -27.524356471  153.219836938    86.3380   1  21   0.0027   0.0031   0.0058   0.0004  -0.0023   0.0004   0.90   32.3
2019/07/21 02:05:59.000  -27.524356463  153.219836938    86.3380   1  21   0.0027   0.0031   0.0058   0.0004  -0.0023   0.0004   0.00   32.3
2019/07/21 02:05:59.100  -27.524356464  153.219836933    86.3389   1  21   0.0027   0.0031   0.0058   0.0004  -0.0023   0.0004   0.10   32.3
2019/07/21 02:05:59.200  -27.524356467  153.219836936    86.3391   1  21   0.0027   0.0031   0.0058   0.0004  -0.0023   0.0004   0.20   32.4
2019/07/21 02:05:59.300  -27.524356477  153.219836934    86.3406   1  21   0.0027   0.0031   0.0058   0.0004  -0.0023   0.0004   0.31   32.4
2019/07/21 02:05:59.400  -27.524356475  153.219836942    86.3406   1  21   0.0027   0.0031   0.0058   0.0004  -0.0023   0.0004   0.41   32.4
2019/07/21 02:05:59.500  -27.524356480  153.219836931    86.3414   1  21   0.0027   0.0031   0.0058   0.0004  -0.0023   0.0004   0.50   32.5
2019/07/21 02:05:59.600  -27.524356476  153.219836930    86.3400   1  21   0.0027   0.0031   0.0058   0.0004  -0.0023   0.0004   0.61   32.5
2019/07/21 02:05:59.700  -27.524356466  153.219836932    86.3404   1  21   0.0027   0.0031   0.0058   0.0004  -0.0023   0.0004   0.70   32.6
2019/07/21 02:05:59.800  -27.524356473  153.219836940    86.3402   1  21   0.0027   0.0031   0.0058   0.0004  -0.0023   0.0004   0.81   32.6
2019/07/21 02:05:59.900  -27.524356471  153.219836929    86.3404   1  21   0.0027   0.0031   0.0058   0.0004  -0.0023   0.0004   0.90   32.7
